id	type	DescriptionTitle	PriceLabel	ListingDate	ReListingDate	Address	Suburb	State	PostCode	Property.lat	Property.lon	PropertyType	Agency.Id	Agency.Type	Agency.Name	Agent.Name	Beds	Baths	Cars	EER	PlotSize	Features
169325525	RENTAL_RESIDENTIAL	Lovely unit in Lyneham - convenient and available now!	$400 per week	2014-10-12 20:05:54		De Burgh Street	Lyneham	ACT	2602	-35.25577531	149.13160221	UNIT	384785	PrivateLister	Private Lister		1	1	2		682	['AIR_CONDITIONING', 'AIR_CONDITIONING_OTHER', 'ALLOCATED_CAR_SPACE', 'DISABILITY_FRIENDLY', 'HEATING_CENTRAL']
169327605	RENTAL_RESIDENTIAL	Best location in Canberra!	$595 per week	2014-10-13 22:03:20		511/222 City Walk	City	ACT	2601	-35.2801981	149.1320725	APARTMENT	4289	Agent	Canberra Furnished Accommodation	Canberra Furnished Accommodation	1	1	0		1138	['FULLY_FURNISHED', 'SHORT_TERM_LEASE']
169385124	RENTAL_RESIDENTIAL	ACCOMMODATION - with Shared Facilities in Franklin CBD.	$220 per week	2014-11-13 04:14:03		(no street name provided)	Franklin	ACT	2913	-35.2018839055509	149.147443630553	HOUSE	31315	PrivateLister	Private Lister		6	3	0		461	['FULLY_FURNISHED', 'SEPARATE_TOILET']
169391344	RENTAL_RESIDENTIAL	Live in a convenient located and stylish F/F home - available in June 2020	$588 per week	2014-11-17 11:27:24		10 MacLurcan Street	Franklin	ACT	2913	-35.2005876	149.1421877	HOUSE	419127	PrivateLister	Private Lister		2	1	2	6	247	['AIR_CONDITIONING', 'AIR_CONDITIONING_OTHER', 'ALARM', 'DINING_ROOM', 'DUCTED_VACCUM', 'ENCLOSED_BACKYARD', 'FULLY_FURNISHED', 'HEATING_REVERSE_CYCLE', 'SELF_CONTAINED_FLAT', 'SEPARATE_TOILET', 'SHORT_TERM_LEASE', 'WASH_CLOSET']
169404164	RENTAL_RESIDENTIAL	11th FLOOR INNER CITY APARTMENT, MANHATTAN ON THE PARK	$600 per week	2014-11-24 08:28:59		1114/240 Bunda Street	City	ACT	2601	-35.27889644	149.13317138	APARTMENT	388806	PrivateLister	Private Lister		1	1	1		4181	[]
