id	type	DescriptionTitle	PriceLabel	ListingDate	ReListingDate	Address	Suburb	State	PostCode	Property.lat	Property.lon	PropertyType	Agency.Id	Agency.Type	Agency.Name	Agent.Name	Beds	Baths	Cars	EER	PlotSize	Features
174433275	RENTAL_RESIDENTIAL	UNAVAILABLE:	$850 per week	2017-10-11 03:35:29		(no street name provided)	Moncrieff	ACT	2914	-35.1638994	149.1173926	HOUSE	247145	PrivateLister	Private Lister		4	4	2	6	692	['AIR_CONDITIONING', 'AIR_CONDITIONING_OTHER', 'ALARM', 'DINING_ROOM', 'ELECTRIC_HEATING', 'FAMILY_ROOM', 'HEATING_CENTRAL', 'HEATING_REVERSE_CYCLE', 'NEW_CONSTRUCTION', 'RUMPUS_ROOM', 'SUNROOM']
174504334	RENTAL_RESIDENTIAL	HIGH LEVEL OF STYLE, DESIGN AND GREAT LOCATION BRINGS THIS OUTSTANDING BOUTIQUE RESIDENCE A HUGE STEP IN FRONT OF OTHERS - PERFECT EXECUTIVE LIVING.	$700-$735 per week	2017-10-25 05:13:54		(no street name provided)	Franklin	ACT	2913	-35.1994206	149.1419559	HOUSE	34735	PrivateLister	Private Lister		4	2	2	5	330	['AIR_CONDITIONING', 'AIR_CONDITIONING_OTHER', 'ALARM', 'DINING_ROOM', 'ENCLOSED_BACKYARD', 'FAMILY_ROOM', 'HEATING_CENTRAL', 'SEPARATE_TOILET']
174514271	RENTAL_RESIDENTIAL	Luxury Home & Outdoor Living. Fully Furnished and equipped. Private. Quiet.	$850 per week	2017-10-27 00:32:05		10a Banks St	Yarralumla	ACT	2600	-35.3086252	149.0958002	HOUSE	476831	Agent	No Agent Property 	No Agent Property	2	1	2	7.5	0	['AIR_CONDITIONING', 'AIR_CONDITIONING_OTHER', 'DISHWASHER', 'FULLY_FURNISHED', 'OUTDOOR_ENTERTAINING_AREA', 'PETS_ALLOWED']
174539317	RENTAL_RESIDENTIAL	2 bedroom and 2 bathroom townhouse - available from 2 March 2020	$540 per week	2017-11-04 06:47:23		16/5 Nevertire Street	Lawson	ACT	2617	-35.2333205	149.0919052	TOWNHOUSE	247255	PrivateLister	Private Lister		2	2	2		9229	['AIR_CONDITIONING', 'AIR_CONDITIONING_OTHER', 'HEATING_REVERSE_CYCLE']
174597759	RENTAL_RESIDENTIAL	Energy Efficient Cottage - 3 Bed or 2 Bed + Study - 2 Bathrooms	$610-$850 per week	2017-11-16 01:08:41		McKinlay Place	Narrabundah	ACT	2604	-35.3317417	149.1465053	COTTAGE	4289	Agent	Canberra Furnished Accommodation	Canberra Furnished Accommodation	2	2	3	6		['AIR_CONDITIONING_REVERSE_CYCLE', 'AIR_CONDITIONING_SPLIT_SYSTEM', 'ALLOCATED_CAR_SPACE', 'CORE_AREA', 'DISABILITY_FRIENDLY', 'DISHWASHER', 'DOUBLE_GLAZED_WINDOWS', 'ELECTRIC_HEATING', 'ENCLOSED_BACKYARD', 'FENCING', 'FULLY_FURNISHED', 'GARDEN_SHED', 'NEW_CONSTRUCTION', 'OFF_STREET_PARKING', 'OUTDOOR_ENTERTAINING_AREA', 'PARTIALLY_FURNISHED', 'SEPARATE_TOILET', 'SHORT_TERM_LEASE', 'SLAB_CONSTRUCTION', 'SOLAR_PANELS', 'STUDY', 'WASH_CLOSET']
174675334	RENTAL_RESIDENTIAL	Gorgeous North Facing Top Floor 1 Bedroom Apartment - Minutes from Gungahlin Market Place	$370 per week	2017-12-03 22:41:56		(no street name provided)	Franklin	ACT	2913	-35.19946016	149.1432938	UNIT	159086	PrivateLister	Private Lister		1	1	1		9026	['AIR_CONDITIONING', 'AIR_CONDITIONING_OTHER', 'ALLOCATED_CAR_SPACE', 'HEATING_REVERSE_CYCLE']
